{
  "projekt": "Berlin – Ersatzneubau-Brückenliste (aus Tagesspiegel-Auszug)",
  "quelle": {
    "medium": "Der Tagesspiegel",
    "datum": "2026-01-15",
    "titel": "Jede sechste Brücke in Berlin ist marode: Diese 175 Bauten müssen abgerissen werden",
    "url": "https://archive.ph/jEOtK"
  },
  "status_werte": {
    "im_bau": "Abriss/Neubau läuft (im Artikel: 'im Bau')",
    "in_planung": "Ersatzneubau geplant (im Artikel: 'in Planung')",
    "zeitplan_unbestimmt": "Ersatzneubau erforderlich, aber noch nicht terminiert/konkretisiert (im Artikel: 'offen' bzw. 'Zeitplan offen')"
  },
  "bruecken": [
    {
      "id": "b001",
      "bezirk": "Mitte",
      "name": "Mühlendammbrücke",
      "detail": "Südost",
      "phase": "im_bau",
      "lat": 52.51515,
      "lon": 13.40703,
      "coord_quelle": "Wikipedia: Mühlendammbrücke"
    },
    {
      "id": "b002",
      "bezirk": "Mitte",
      "name": "Mühlendammbrücke",
      "detail": "Nordwest",
      "phase": "in_planung",
      "lat": 52.51515,
      "lon": 13.40703,
      "coord_quelle": "Wikipedia: Mühlendammbrücke"
    },
    {
      "id": "b003",
      "bezirk": "Mitte",
      "name": "Neue Gertraudenbrücke",
      "detail": "Südost",
      "phase": "in_planung",
      "lat": 52.51072,
      "lon": 13.40167,
      "coord_quelle": "Wikipedia: Gertraudenbrücke"
    },
    {
      "id": "b004",
      "bezirk": "Mitte",
      "name": "Neue Gertraudenbrücke",
      "detail": "Nordwest",
      "phase": "in_planung",
      "lat": 52.51072,
      "lon": 13.40167,
      "coord_quelle": "Wikipedia: Gertraudenbrücke"
    },
    {
      "id": "b005",
      "bezirk": "Mitte",
      "name": "Spittelmarktbrücke",
      "detail": null,
      "phase": "in_planung",
      "lat": 52.511595729999996,
      "lon": 13.40208022,
      "coord_quelle": "WFS Detailnetz Berlin: Spittelmarktbrücke"
    },
    {
      "id": "b006",
      "bezirk": "Mitte",
      "name": "Putlitzbrücke",
      "detail": "Überbau 1",
      "phase": "zeitplan_unbestimmt",
      "lat": 52.53583,
      "lon": 13.34333,
      "coord_quelle": "Wikipedia: Putlitzbrücke"
    },
    {
      "id": "b007",
      "bezirk": "Mitte",
      "name": "Putlitzbrücke",
      "detail": "Überbau 2",
      "phase": "zeitplan_unbestimmt",
      "lat": 52.53583,
      "lon": 13.34333,
      "coord_quelle": "Wikipedia: Putlitzbrücke"
    },
    {
      "id": "b008",
      "bezirk": "Mitte",
      "name": "Wullenwebersteg",
      "detail": null,
      "phase": "zeitplan_unbestimmt",
      "lat": 52.51722,
      "lon": 13.33472,
      "coord_quelle": "Wikipedia: Wullenwebersteg"
    },
    {
      "id": "b009",
      "bezirk": "Mitte",
      "name": "Ebertbrücke",
      "detail": null,
      "phase": "zeitplan_unbestimmt",
      "lat": 52.522417,
      "lon": 13.39168,
      "coord_quelle": "Wikipedia: Ebertbrücke"
    },
    {
      "id": "b010",
      "bezirk": "Mitte",
      "name": "Löwenbrücke",
      "detail": null,
      "phase": "im_bau",
      "lat": 52.51417,
      "lon": 13.34306,
      "coord_quelle": "Wikipedia: Löwenbrücke (Berlin)"
    },
    {
      "id": "b011",
      "bezirk": "Mitte",
      "name": "Jannowitzbrücke",
      "detail": null,
      "phase": "zeitplan_unbestimmt",
      "lat": 52.51278,
      "lon": 13.41833,
      "coord_quelle": "Wikipedia: Jannowitzbrücke"
    },
    {
      "id": "b012",
      "bezirk": "Mitte",
      "name": "Jannowitzbrücke",
      "detail": "Galerie zum S-Bahnhof",
      "phase": "zeitplan_unbestimmt",
      "lat": 52.51278,
      "lon": 13.41833,
      "coord_quelle": "Wikipedia: Jannowitzbrücke"
    },
    {
      "id": "b013",
      "bezirk": "Friedrichshain-Kreuzberg",
      "name": "Schöneberger Brücke",
      "detail": "Teilbauwerk 1",
      "phase": "zeitplan_unbestimmt",
      "lat": 52.50167,
      "lon": 13.37667,
      "coord_quelle": "Wikipedia: Schöneberger Brücke"
    },
    {
      "id": "b014",
      "bezirk": "Friedrichshain-Kreuzberg",
      "name": "Schöneberger Brücke",
      "detail": "Teilbauwerk 2",
      "phase": "zeitplan_unbestimmt",
      "lat": 52.50167,
      "lon": 13.37667,
      "coord_quelle": "Wikipedia: Schöneberger Brücke"
    },
    {
      "id": "b015",
      "bezirk": "Friedrichshain-Kreuzberg",
      "name": "Schöneberger Brücke",
      "detail": "Teilbauwerk 3",
      "phase": "zeitplan_unbestimmt",
      "lat": 52.50167,
      "lon": 13.37667,
      "coord_quelle": "Wikipedia: Schöneberger Brücke"
    },
    {
      "id": "b016",
      "bezirk": "Friedrichshain-Kreuzberg",
      "name": "Möckernbrücke",
      "detail": null,
      "phase": "zeitplan_unbestimmt",
      "lat": 52.49889,
      "lon": 13.38028,
      "coord_quelle": "Wikipedia: Möckernbrücke"
    },
    {
      "id": "b017",
      "bezirk": "Friedrichshain-Kreuzberg",
      "name": "Brommybrücke",
      "detail": null,
      "phase": "in_planung",
      "lat": 52.50139,
      "lon": 13.44556,
      "coord_quelle": "Wikipedia: Brommybrücke"
    },
    {
      "id": "b018",
      "bezirk": "Friedrichshain-Kreuzberg",
      "name": "Mehringbrücke",
      "detail": "östlicher Teil",
      "phase": "zeitplan_unbestimmt",
      "lat": 52.497872,
      "lon": 13.388987,
      "coord_quelle": "Wikipedia: Mehringbrücke"
    },
    {
      "id": "b019",
      "bezirk": "Friedrichshain-Kreuzberg",
      "name": "Mehringbrücke",
      "detail": "westlicher Teil",
      "phase": "zeitplan_unbestimmt",
      "lat": 52.497872,
      "lon": 13.388987,
      "coord_quelle": "Wikipedia: Mehringbrücke"
    },
    {
      "id": "b020",
      "bezirk": "Friedrichshain-Kreuzberg",
      "name": "Elsenbrücke",
      "detail": "nordwestlicher Teil",
      "phase": "im_bau",
      "lat": 52.49611,
      "lon": 13.46306,
      "coord_quelle": "Wikipedia: Elsenbrücke"
    },
    {
      "id": "b021",
      "bezirk": "Friedrichshain-Kreuzberg",
      "name": "Elsenbrücke",
      "detail": "südöstlicher Teil",
      "phase": "in_planung",
      "lat": 52.49611,
      "lon": 13.46306,
      "coord_quelle": "Wikipedia: Elsenbrücke"
    },
    {
      "id": "b022",
      "bezirk": "Friedrichshain-Kreuzberg",
      "name": "Thielenbrücke",
      "detail": null,
      "phase": "zeitplan_unbestimmt",
      "lat": 52.491430555556,
      "lon": 13.435397222222,
      "coord_quelle": "Wikipedia: Thielenbrücke"
    },
    {
      "id": "b023",
      "bezirk": "Friedrichshain-Kreuzberg",
      "name": "Warschauer Brücke",
      "detail": "nördlicher Überbau",
      "phase": "zeitplan_unbestimmt",
      "lat": 52.50528,
      "lon": 13.44889,
      "coord_quelle": "Wikipedia: Warschauer Brücke"
    },
    {
      "id": "b024",
      "bezirk": "Friedrichshain-Kreuzberg",
      "name": "Warschauer Brücke",
      "detail": "mittlerer Überbau",
      "phase": "zeitplan_unbestimmt",
      "lat": 52.50528,
      "lon": 13.44889,
      "coord_quelle": "Wikipedia: Warschauer Brücke"
    },
    {
      "id": "b025",
      "bezirk": "Friedrichshain-Kreuzberg",
      "name": "Warschauer Brücke",
      "detail": "östlicher Überbau",
      "phase": "zeitplan_unbestimmt",
      "lat": 52.50528,
      "lon": 13.44889,
      "coord_quelle": "Wikipedia: Warschauer Brücke"
    },
    {
      "id": "b026",
      "bezirk": "Pankow",
      "name": "Sellheimbrücke",
      "detail": null,
      "phase": "in_planung",
      "lat": 52.599758,
      "lon": 13.469248,
      "coord_quelle": "Wikipedia: Sellheimbrücke"
    },
    {
      "id": "b027",
      "bezirk": "Pankow",
      "name": "Blankenburger Laakebrücke",
      "detail": null,
      "phase": "in_planung",
      "lat": 52.598932070000004,
      "lon": 13.46890118,
      "coord_quelle": "WFS Detailnetz Berlin: Blankenburger-Laake-Brücke"
    },
    {
      "id": "b028",
      "bezirk": "Pankow",
      "name": "Bahnhofstraßenbrücke",
      "detail": null,
      "phase": "in_planung",
      "lat": null,
      "lon": null,
      "coord_quelle": null
    },
    {
      "id": "b029",
      "bezirk": "Pankow",
      "name": "Pankebrücke",
      "detail": "I",
      "phase": "zeitplan_unbestimmt",
      "lat": 52.608024575,
      "lon": 13.449358325,
      "coord_quelle": "WFS Detailnetz Berlin: Pankebrücke (Panke)"
    },
    {
      "id": "b030",
      "bezirk": "Pankow",
      "name": "Pankebrücke",
      "detail": "II",
      "phase": "zeitplan_unbestimmt",
      "lat": 52.608024575,
      "lon": 13.449358325,
      "coord_quelle": "WFS Detailnetz Berlin: Pankebrücke (Panke)"
    },
    {
      "id": "b031",
      "bezirk": "Pankow",
      "name": "Östliche Bucher-Straßenbrücke",
      "detail": null,
      "phase": "in_planung",
      "lat": 52.616485265,
      "lon": 13.44671456,
      "coord_quelle": "WFS Detailnetz Berlin: Östliche Bucher-Straßenbrücke"
    },
    {
      "id": "b032",
      "bezirk": "Pankow",
      "name": "Schönfließer Brücke",
      "detail": null,
      "phase": "in_planung",
      "lat": 52.549669,
      "lon": 13.408157,
      "coord_quelle": "Wikipedia: Schönfließer Brücke"
    },
    {
      "id": "b033",
      "bezirk": "Pankow",
      "name": "Schönhauser Allee Brücke",
      "detail": null,
      "phase": "in_planung",
      "lat": 52.54889,
      "lon": 13.41472,
      "coord_quelle": "Wikipedia: Schönhauser-Allee-Brücke"
    },
    {
      "id": "b034",
      "bezirk": "Pankow",
      "name": "Schönhauser Allee Brücke",
      "detail": "Nordwest",
      "phase": "in_planung",
      "lat": 52.54889,
      "lon": 13.41472,
      "coord_quelle": "Wikipedia: Schönhauser-Allee-Brücke"
    },
    {
      "id": "b035",
      "bezirk": "Pankow",
      "name": "Schönhauser Allee Brücke",
      "detail": "Süden",
      "phase": "in_planung",
      "lat": 52.54889,
      "lon": 13.41472,
      "coord_quelle": "Wikipedia: Schönhauser-Allee-Brücke"
    },
    {
      "id": "b036",
      "bezirk": "Pankow",
      "name": "Pappelalleebrücke",
      "detail": null,
      "phase": "zeitplan_unbestimmt",
      "lat": 52.54778,
      "lon": 13.41972,
      "coord_quelle": "Wikipedia: Pappelalleebrücke"
    },
    {
      "id": "b037",
      "bezirk": "Pankow",
      "name": "Dunckerbrücke",
      "detail": null,
      "phase": "in_planung",
      "lat": 52.54583,
      "lon": 13.42361,
      "coord_quelle": "Wikipedia: Dunckerbrücke"
    },
    {
      "id": "b038",
      "bezirk": "Pankow",
      "name": "Kniprodestraßenbrücke",
      "detail": "nordwestlicher Teil",
      "phase": "zeitplan_unbestimmt",
      "lat": 52.53611,
      "lon": 13.44789,
      "coord_quelle": "Wikipedia: Kniprodestraßenbrücke"
    },
    {
      "id": "b039",
      "bezirk": "Pankow",
      "name": "Kniprodestraßenbrücke",
      "detail": "südöstlicher Teil",
      "phase": "zeitplan_unbestimmt",
      "lat": 52.53611,
      "lon": 13.44789,
      "coord_quelle": "Wikipedia: Kniprodestraßenbrücke"
    },
    {
      "id": "b040",
      "bezirk": "Pankow",
      "name": "Landsberger-Allee-Brücke",
      "detail": null,
      "phase": "zeitplan_unbestimmt",
      "lat": 52.52846,
      "lon": 13.45555,
      "coord_quelle": "Wikipedia: Landsberger-Allee-Brücke"
    },
    {
      "id": "b041",
      "bezirk": "Pankow",
      "name": "Landsberger-Allee-Brücke",
      "detail": "nördlicher Teil",
      "phase": "zeitplan_unbestimmt",
      "lat": 52.52846,
      "lon": 13.45555,
      "coord_quelle": "Wikipedia: Landsberger-Allee-Brücke"
    },
    {
      "id": "b042",
      "bezirk": "Pankow",
      "name": "Landsberger-Allee-Brücke",
      "detail": "südlicher Teil",
      "phase": "zeitplan_unbestimmt",
      "lat": 52.52846,
      "lon": 13.45555,
      "coord_quelle": "Wikipedia: Landsberger-Allee-Brücke"
    },
    {
      "id": "b043",
      "bezirk": "Pankow",
      "name": "Darßer Brücke",
      "detail": null,
      "phase": "zeitplan_unbestimmt",
      "lat": 52.56728678,
      "lon": 13.47448949,
      "coord_quelle": "WFS Detailnetz Berlin: Darßer Brücke"
    },
    {
      "id": "b044",
      "bezirk": "Pankow",
      "name": "Lindenberger-Weg-Brücke",
      "detail": null,
      "phase": "zeitplan_unbestimmt",
      "lat": 52.595077,
      "lon": 13.475218,
      "coord_quelle": "Wikipedia: Lindenberger-Weg-Brücke"
    },
    {
      "id": "b045",
      "bezirk": "Pankow",
      "name": "Ossietzkybrücke",
      "detail": null,
      "phase": "in_planung",
      "lat": 52.575060789999995,
      "lon": 13.40694284,
      "coord_quelle": "WFS Detailnetz Berlin: Ossietzkybrücke (Panke)"
    },
    {
      "id": "b046",
      "bezirk": "Pankow",
      "name": "Schloßparkbrücke",
      "detail": null,
      "phase": "zeitplan_unbestimmt",
      "lat": 52.575399559999994,
      "lon": 13.407663195000001,
      "coord_quelle": "WFS Detailnetz Berlin: Schloßparkbrücke I (Panke)"
    },
    {
      "id": "b047",
      "bezirk": "Pankow",
      "name": "Schloßparkbrücke",
      "detail": "III",
      "phase": "im_bau",
      "lat": 52.575399559999994,
      "lon": 13.407663195000001,
      "coord_quelle": "WFS Detailnetz Berlin: Schloßparkbrücke I (Panke)"
    },
    {
      "id": "b048",
      "bezirk": "Pankow",
      "name": "Westlicher Parksteg",
      "detail": null,
      "phase": "zeitplan_unbestimmt",
      "lat": 52.570075,
      "lon": 13.391911111111,
      "coord_quelle": "Wikipedia: Westlicher Parksteg"
    },
    {
      "id": "b049",
      "bezirk": "Pankow",
      "name": "Östlicher Parksteg",
      "detail": null,
      "phase": "zeitplan_unbestimmt",
      "lat": 52.570525,
      "lon": 13.395880555556,
      "coord_quelle": "Wikipedia: Östlicher Parksteg"
    },
    {
      "id": "b050",
      "bezirk": "Charlottenburg-Wilmersdorf",
      "name": "Röntgenbrücke",
      "detail": null,
      "phase": "zeitplan_unbestimmt",
      "lat": 52.52028,
      "lon": 13.31444,
      "coord_quelle": "Wikipedia: Röntgenbrücke"
    },
    {
      "id": "b051",
      "bezirk": "Charlottenburg-Wilmersdorf",
      "name": "Caprivibrücke",
      "detail": null,
      "phase": "zeitplan_unbestimmt",
      "lat": 52.52083,
      "lon": 13.30611,
      "coord_quelle": "Wikipedia: Caprivibrücke"
    },
    {
      "id": "b052",
      "bezirk": "Charlottenburg-Wilmersdorf",
      "name": "Schlossbrücke",
      "detail": null,
      "phase": "in_planung",
      "lat": 52.52028,
      "lon": 13.29556,
      "coord_quelle": "Wikipedia: Schlossbrücke (Charlottenburg)"
    },
    {
      "id": "b053",
      "bezirk": "Charlottenburg-Wilmersdorf",
      "name": "Schlossbrückensteg",
      "detail": null,
      "phase": "in_planung",
      "lat": 52.521789815000005,
      "lon": 13.30007707,
      "coord_quelle": "WFS Detailnetz Berlin: Schloßbrücke"
    },
    {
      "id": "b054",
      "bezirk": "Charlottenburg-Wilmersdorf",
      "name": "Nördliche Holzbrücke Ruhwaldpark",
      "detail": null,
      "phase": "zeitplan_unbestimmt",
      "lat": 52.513519009999996,
      "lon": 13.344487645000001,
      "coord_quelle": "WFS Detailnetz Berlin: Holzbrücke"
    },
    {
      "id": "b055",
      "bezirk": "Charlottenburg-Wilmersdorf",
      "name": "Brücke Parkhaus ICC",
      "detail": "Halenseestraße West",
      "phase": "zeitplan_unbestimmt",
      "lat": null,
      "lon": null,
      "coord_quelle": null
    },
    {
      "id": "b056",
      "bezirk": "Charlottenburg-Wilmersdorf",
      "name": "Halenseestraßenbrücke",
      "detail": "West",
      "phase": "zeitplan_unbestimmt",
      "lat": 52.500233341666664,
      "lon": 13.280208236666667,
      "coord_quelle": "WFS Detailnetz Berlin: Halenseestraßenbrücke"
    },
    {
      "id": "b057",
      "bezirk": "Charlottenburg-Wilmersdorf",
      "name": "Halenseestraßenbrücke",
      "detail": "Ost",
      "phase": "zeitplan_unbestimmt",
      "lat": 52.500233341666664,
      "lon": 13.280208236666667,
      "coord_quelle": "WFS Detailnetz Berlin: Halenseestraßenbrücke"
    },
    {
      "id": "b058",
      "bezirk": "Charlottenburg-Wilmersdorf",
      "name": "Kurfürstendammbrücke",
      "detail": null,
      "phase": "zeitplan_unbestimmt",
      "lat": 52.49694,
      "lon": 13.28917,
      "coord_quelle": "Wikipedia: Kurfürstendammbrücke"
    },
    {
      "id": "b059",
      "bezirk": "Charlottenburg-Wilmersdorf",
      "name": "Brücke Lietzensee-Durchlass",
      "detail": null,
      "phase": "zeitplan_unbestimmt",
      "lat": null,
      "lon": null,
      "coord_quelle": null
    },
    {
      "id": "b060",
      "bezirk": "Spandau",
      "name": "Spektegrabensteg",
      "detail": null,
      "phase": "im_bau",
      "lat": null,
      "lon": null,
      "coord_quelle": null
    },
    {
      "id": "b061",
      "bezirk": "Spandau",
      "name": "Fußgängerbrücke über die Stieglakegraben",
      "detail": null,
      "phase": "zeitplan_unbestimmt",
      "lat": null,
      "lon": null,
      "coord_quelle": null
    },
    {
      "id": "b062",
      "bezirk": "Spandau",
      "name": "Spektegrabenbrücke",
      "detail": null,
      "phase": "in_planung",
      "lat": null,
      "lon": null,
      "coord_quelle": null
    },
    {
      "id": "b063",
      "bezirk": "Spandau",
      "name": "Spektelakesteg",
      "detail": "I",
      "phase": "in_planung",
      "lat": 52.54625419,
      "lon": 13.151822275,
      "coord_quelle": "WFS Detailnetz Berlin: Spektelakesteg I"
    },
    {
      "id": "b064",
      "bezirk": "Spandau",
      "name": "Carl-Schurz-Brücke",
      "detail": null,
      "phase": "zeitplan_unbestimmt",
      "lat": 52.53583117,
      "lon": 13.20131887,
      "coord_quelle": "WFS Detailnetz Berlin: Carl-Schurz-Brücke"
    },
    {
      "id": "b065",
      "bezirk": "Spandau",
      "name": "Schulenburgbrücke",
      "detail": null,
      "phase": "in_planung",
      "lat": 52.54528,
      "lon": 13.19833,
      "coord_quelle": "Wikipedia: Schulenburgbrücke"
    },
    {
      "id": "b066",
      "bezirk": "Spandau",
      "name": "Schulenburgbrücke",
      "detail": "1. Vorlandbrücke",
      "phase": "in_planung",
      "lat": 52.54528,
      "lon": 13.19833,
      "coord_quelle": "Wikipedia: Schulenburgbrücke"
    },
    {
      "id": "b067",
      "bezirk": "Spandau",
      "name": "Schulenburgbrücke",
      "detail": "2. Vorlandbrücke",
      "phase": "in_planung",
      "lat": 52.54528,
      "lon": 13.19833,
      "coord_quelle": "Wikipedia: Schulenburgbrücke"
    },
    {
      "id": "b068",
      "bezirk": "Spandau",
      "name": "Rohrdammbrücke",
      "detail": "Ost",
      "phase": "zeitplan_unbestimmt",
      "lat": 52.529166666667,
      "lon": 13.268472222222,
      "coord_quelle": "Wikipedia: Rohrdammbrücke"
    },
    {
      "id": "b069",
      "bezirk": "Spandau",
      "name": "Rohrdammbrücke",
      "detail": "West",
      "phase": "zeitplan_unbestimmt",
      "lat": 52.529166666667,
      "lon": 13.268472222222,
      "coord_quelle": "Wikipedia: Rohrdammbrücke"
    },
    {
      "id": "b070",
      "bezirk": "Spandau",
      "name": "Dischingerbrücke",
      "detail": "Nord",
      "phase": "zeitplan_unbestimmt",
      "lat": 52.53194,
      "lon": 13.20111,
      "coord_quelle": "Wikipedia: Dischingerbrücke"
    },
    {
      "id": "b071",
      "bezirk": "Spandau",
      "name": "Charlottenbrücke",
      "detail": "westliche Uferbrücke",
      "phase": "zeitplan_unbestimmt",
      "lat": 52.54611,
      "lon": 13.17639,
      "coord_quelle": "Wikipedia: Charlottenbrücke"
    },
    {
      "id": "b072",
      "bezirk": "Spandau",
      "name": "Charlottenbrücke",
      "detail": "Havelquerung",
      "phase": "zeitplan_unbestimmt",
      "lat": 52.54611,
      "lon": 13.17639,
      "coord_quelle": "Wikipedia: Charlottenbrücke"
    },
    {
      "id": "b073",
      "bezirk": "Spandau",
      "name": "Charlottenbrücke",
      "detail": "östliche Uferbrücke",
      "phase": "zeitplan_unbestimmt",
      "lat": 52.54611,
      "lon": 13.17639,
      "coord_quelle": "Wikipedia: Charlottenbrücke"
    },
    {
      "id": "b074",
      "bezirk": "Spandau",
      "name": "Fußgängerbrücke über den Elsengraben",
      "detail": null,
      "phase": "zeitplan_unbestimmt",
      "lat": null,
      "lon": null,
      "coord_quelle": null
    },
    {
      "id": "b075",
      "bezirk": "Steglitz-Zehlendorf",
      "name": "Brücke über den Erlenbruch",
      "detail": null,
      "phase": "zeitplan_unbestimmt",
      "lat": null,
      "lon": null,
      "coord_quelle": null
    },
    {
      "id": "b076",
      "bezirk": "Steglitz-Zehlendorf",
      "name": "Thielalleebrücke",
      "detail": null,
      "phase": "zeitplan_unbestimmt",
      "lat": 52.453213888889,
      "lon": 13.285972222222,
      "coord_quelle": "Wikipedia: Thielalleebrücke"
    },
    {
      "id": "b077",
      "bezirk": "Steglitz-Zehlendorf",
      "name": "Joachim-Tiburtius-Brücke",
      "detail": "Nordwest",
      "phase": "zeitplan_unbestimmt",
      "lat": 52.46083,
      "lon": 13.32694,
      "coord_quelle": "Wikipedia: Joachim-Tiburtius-Brücke"
    },
    {
      "id": "b078",
      "bezirk": "Steglitz-Zehlendorf",
      "name": "Teufelsbrücke",
      "detail": null,
      "phase": "zeitplan_unbestimmt",
      "lat": 52.418856,
      "lon": 13.097249,
      "coord_quelle": "Wikipedia: Teufelsbrücke"
    },
    {
      "id": "b079",
      "bezirk": "Tempelhof-Schöneberg",
      "name": "Fußgängerbrücke Priesterweg",
      "detail": null,
      "phase": "zeitplan_unbestimmt",
      "lat": null,
      "lon": null,
      "coord_quelle": null
    },
    {
      "id": "b080",
      "bezirk": "Tempelhof-Schöneberg",
      "name": "Stubenrauchbrücke",
      "detail": null,
      "phase": "zeitplan_unbestimmt",
      "lat": 52.45472,
      "lon": 13.39778,
      "coord_quelle": "Wikipedia: Stubenrauchbrücke"
    },
    {
      "id": "b081",
      "bezirk": "Tempelhof-Schöneberg",
      "name": "Fußgängerbrücke über den Königsgraben",
      "detail": null,
      "phase": "in_planung",
      "lat": null,
      "lon": null,
      "coord_quelle": null
    },
    {
      "id": "b082",
      "bezirk": "Tempelhof-Schöneberg",
      "name": "Fußgängerbrücke über den Poleigraben",
      "detail": null,
      "phase": "zeitplan_unbestimmt",
      "lat": null,
      "lon": null,
      "coord_quelle": null
    },
    {
      "id": "b083",
      "bezirk": "Neukölln",
      "name": "Grenzalleebrücke",
      "detail": null,
      "phase": "zeitplan_unbestimmt",
      "lat": 52.46523,
      "lon": 13.45306,
      "coord_quelle": "Wikipedia: Grenzalleebrücke"
    },
    {
      "id": "b084",
      "bezirk": "Treptow-Köpenick",
      "name": "Teltowkanalbrücke",
      "detail": null,
      "phase": "zeitplan_unbestimmt",
      "lat": 52.426168395,
      "lon": 13.526654385,
      "coord_quelle": "WFS Detailnetz Berlin: Teltowkanalbrücke"
    },
    {
      "id": "b085",
      "bezirk": "Treptow-Köpenick",
      "name": "Nördliche Germanenstraßenbrücke",
      "detail": null,
      "phase": "zeitplan_unbestimmt",
      "lat": 52.4140458,
      "lon": 13.55302094,
      "coord_quelle": "WFS Detailnetz Berlin: Nördliche Germanenstraßenbrücke"
    },
    {
      "id": "b086",
      "bezirk": "Treptow-Köpenick",
      "name": "Fußgängerbrücke Rebenweg",
      "detail": null,
      "phase": "zeitplan_unbestimmt",
      "lat": null,
      "lon": null,
      "coord_quelle": null
    },
    {
      "id": "b087",
      "bezirk": "Treptow-Köpenick",
      "name": "Brigittensteg",
      "detail": null,
      "phase": "zeitplan_unbestimmt",
      "lat": 52.40045906,
      "lon": 13.532098315,
      "coord_quelle": "WFS Detailnetz Berlin: Brigittensteg (Fußgängerbrücke)"
    },
    {
      "id": "b088",
      "bezirk": "Treptow-Köpenick",
      "name": "Brigittenbrücke",
      "detail": null,
      "phase": "zeitplan_unbestimmt",
      "lat": 52.40045906,
      "lon": 13.532098315,
      "coord_quelle": "WFS Detailnetz Berlin: Brigittenbrücke"
    },
    {
      "id": "b089",
      "bezirk": "Treptow-Köpenick",
      "name": "Brücke am Bahndamm",
      "detail": null,
      "phase": "in_planung",
      "lat": 52.4595324,
      "lon": 13.57659737,
      "coord_quelle": "WFS Detailnetz Berlin: Brücke Am Bahndamm (Wuhle)"
    },
    {
      "id": "b090",
      "bezirk": "Treptow-Köpenick",
      "name": "Pyramidenbrücke",
      "detail": null,
      "phase": "im_bau",
      "lat": 52.45527,
      "lon": 13.566766,
      "coord_quelle": "Wikipedia: Pyramidenbrücke"
    },
    {
      "id": "b091",
      "bezirk": "Treptow-Köpenick",
      "name": "Nördliche Freiarmbrücke",
      "detail": null,
      "phase": "zeitplan_unbestimmt",
      "lat": 52.453136111111,
      "lon": 13.594794444444,
      "coord_quelle": "Wikipedia: Nördliche Freiarmbrücke"
    },
    {
      "id": "b092",
      "bezirk": "Treptow-Köpenick",
      "name": "Dammbrücke",
      "detail": null,
      "phase": "zeitplan_unbestimmt",
      "lat": 52.44833,
      "lon": 13.57472,
      "coord_quelle": "Wikipedia: Dammbrücke (Köpenick)"
    },
    {
      "id": "b093",
      "bezirk": "Treptow-Köpenick",
      "name": "Lange Brücke",
      "detail": null,
      "phase": "in_planung",
      "lat": 52.44472,
      "lon": 13.57194,
      "coord_quelle": "Wikipedia: Lange Brücke (Köpenick)"
    },
    {
      "id": "b094",
      "bezirk": "Treptow-Köpenick",
      "name": "Köpenicker-Allee-Brücke",
      "detail": null,
      "phase": "in_planung",
      "lat": 52.46911712,
      "lon": 13.552902425,
      "coord_quelle": "WFS Detailnetz Berlin: Köpenicker-Allee-Brücke"
    },
    {
      "id": "b095",
      "bezirk": "Treptow-Köpenick",
      "name": "Waldstraßenbrücke",
      "detail": null,
      "phase": "zeitplan_unbestimmt",
      "lat": 52.424694085,
      "lon": 13.72041526,
      "coord_quelle": "WFS Detailnetz Berlin: Waldstraßenbrücke"
    },
    {
      "id": "b096",
      "bezirk": "Treptow-Köpenick",
      "name": "Brücke Am Neuen Krug",
      "detail": null,
      "phase": "zeitplan_unbestimmt",
      "lat": null,
      "lon": null,
      "coord_quelle": null
    },
    {
      "id": "b097",
      "bezirk": "Treptow-Köpenick",
      "name": "Südliche Rialtoringbrücke",
      "detail": null,
      "phase": "zeitplan_unbestimmt",
      "lat": null,
      "lon": null,
      "coord_quelle": null
    },
    {
      "id": "b098",
      "bezirk": "Treptow-Köpenick",
      "name": "Nördliche Rialtoringbrücke",
      "detail": null,
      "phase": "zeitplan_unbestimmt",
      "lat": 52.432324135,
      "lon": 13.7054257,
      "coord_quelle": "WFS Detailnetz Berlin: Nördliche Rialtoringbrücke"
    },
    {
      "id": "b099",
      "bezirk": "Marzahn-Hellersdorf",
      "name": "Marzahner Brücke",
      "detail": "Bauwerk 16",
      "phase": "im_bau",
      "lat": 52.53861506,
      "lon": 13.53246489,
      "coord_quelle": "WFS Detailnetz Berlin: Marzahner Brücke (BW 10), ÜBB Nord"
    },
    {
      "id": "b100",
      "bezirk": "Marzahn-Hellersdorf",
      "name": "Marzahner Brücke",
      "detail": "Bauwerk 13 Nord",
      "phase": "im_bau",
      "lat": 52.53861506,
      "lon": 13.53246489,
      "coord_quelle": "WFS Detailnetz Berlin: Marzahner Brücke (BW 10), ÜBB Nord"
    },
    {
      "id": "b101",
      "bezirk": "Marzahn-Hellersdorf",
      "name": "Marzahner Brücke",
      "detail": "Bauwerk 13 Süd",
      "phase": "im_bau",
      "lat": 52.53861506,
      "lon": 13.53246489,
      "coord_quelle": "WFS Detailnetz Berlin: Marzahner Brücke (BW 10), ÜBB Nord"
    },
    {
      "id": "b102",
      "bezirk": "Marzahn-Hellersdorf",
      "name": "Marzahner Brücke",
      "detail": "Bauwerk 9 Nord",
      "phase": "im_bau",
      "lat": 52.53861506,
      "lon": 13.53246489,
      "coord_quelle": "WFS Detailnetz Berlin: Marzahner Brücke (BW 10), ÜBB Nord"
    },
    {
      "id": "b103",
      "bezirk": "Marzahn-Hellersdorf",
      "name": "Marzahner Brücke",
      "detail": "Bauwerk 9 Süd",
      "phase": "im_bau",
      "lat": 52.53861506,
      "lon": 13.53246489,
      "coord_quelle": "WFS Detailnetz Berlin: Marzahner Brücke (BW 10), ÜBB Nord"
    },
    {
      "id": "b104",
      "bezirk": "Marzahn-Hellersdorf",
      "name": "Marzahner Brücke",
      "detail": "Bauwerk 8",
      "phase": "im_bau",
      "lat": 52.53861506,
      "lon": 13.53246489,
      "coord_quelle": "WFS Detailnetz Berlin: Marzahner Brücke (BW 10), ÜBB Nord"
    },
    {
      "id": "b105",
      "bezirk": "Marzahn-Hellersdorf",
      "name": "Brücke Allee der Kosmonauten",
      "detail": "Bauwerk 5a",
      "phase": "in_planung",
      "lat": 52.525626445,
      "lon": 13.53697174,
      "coord_quelle": "WFS Detailnetz Berlin: Br. Allee d. Kosmonauten,BW 6a"
    },
    {
      "id": "b106",
      "bezirk": "Marzahn-Hellersdorf",
      "name": "Brücke Allee der Kosmonauten",
      "detail": "Bauwerk 5c",
      "phase": "in_planung",
      "lat": 52.525626445,
      "lon": 13.53697174,
      "coord_quelle": "WFS Detailnetz Berlin: Br. Allee d. Kosmonauten,BW 6a"
    },
    {
      "id": "b107",
      "bezirk": "Marzahn-Hellersdorf",
      "name": "Brücke Allee der Kosmonauten",
      "detail": "Bauwerk 6a",
      "phase": "in_planung",
      "lat": 52.525626445,
      "lon": 13.53697174,
      "coord_quelle": "WFS Detailnetz Berlin: Br. Allee d. Kosmonauten,BW 6a"
    },
    {
      "id": "b108",
      "bezirk": "Marzahn-Hellersdorf",
      "name": "Brücke Allee der Kosmonauten",
      "detail": "Bauwerk 6c",
      "phase": "in_planung",
      "lat": 52.525626445,
      "lon": 13.53697174,
      "coord_quelle": "WFS Detailnetz Berlin: Br. Allee d. Kosmonauten,BW 6a"
    },
    {
      "id": "b109",
      "bezirk": "Marzahn-Hellersdorf",
      "name": "Brücke Allee der Kosmonauten",
      "detail": "Bauwerk 7c",
      "phase": "in_planung",
      "lat": 52.525626445,
      "lon": 13.53697174,
      "coord_quelle": "WFS Detailnetz Berlin: Br. Allee d. Kosmonauten,BW 6a"
    },
    {
      "id": "b110",
      "bezirk": "Marzahn-Hellersdorf",
      "name": "Brücke Allee der Kosmonauten",
      "detail": "Bauwerk 7a",
      "phase": "in_planung",
      "lat": 52.525626445,
      "lon": 13.53697174,
      "coord_quelle": "WFS Detailnetz Berlin: Br. Allee d. Kosmonauten,BW 6a"
    },
    {
      "id": "b111",
      "bezirk": "Marzahn-Hellersdorf",
      "name": "Südl. Nikolai-E.-Bersarin-Brücke",
      "detail": null,
      "phase": "zeitplan_unbestimmt",
      "lat": 52.549543895,
      "lon": 13.58661391,
      "coord_quelle": "WFS Detailnetz Berlin: Nikolai-E.-Bersarin-Brücke"
    },
    {
      "id": "b112",
      "bezirk": "Marzahn-Hellersdorf",
      "name": "Cecilienstraßenbrücke",
      "detail": "nördlich",
      "phase": "zeitplan_unbestimmt",
      "lat": 52.5233597,
      "lon": 13.588782075000001,
      "coord_quelle": "WFS Detailnetz Berlin: Cecilienstraßenbrücke, nördl.Gehb.- u. Rohrleitungsbrücke"
    },
    {
      "id": "b113",
      "bezirk": "Marzahn-Hellersdorf",
      "name": "Cecilienstraßenbrücke",
      "detail": null,
      "phase": "zeitplan_unbestimmt",
      "lat": 52.5233597,
      "lon": 13.588782075000001,
      "coord_quelle": "WFS Detailnetz Berlin: Cecilienstraßenbrücke, nördl.Gehb.- u. Rohrleitungsbrücke"
    },
    {
      "id": "b114",
      "bezirk": "Marzahn-Hellersdorf",
      "name": "Cecilienstraßenbrücke",
      "detail": "südlich",
      "phase": "zeitplan_unbestimmt",
      "lat": 52.5233597,
      "lon": 13.588782075000001,
      "coord_quelle": "WFS Detailnetz Berlin: Cecilienstraßenbrücke, nördl.Gehb.- u. Rohrleitungsbrücke"
    },
    {
      "id": "b115",
      "bezirk": "Marzahn-Hellersdorf",
      "name": "Grottkauer Brücke",
      "detail": null,
      "phase": "zeitplan_unbestimmt",
      "lat": 52.52935,
      "lon": 13.591044,
      "coord_quelle": "Wikipedia: Grottkauer Brücke"
    },
    {
      "id": "b116",
      "bezirk": "Marzahn-Hellersdorf",
      "name": "Fußgängerbrücke Kastanienallee",
      "detail": null,
      "phase": "zeitplan_unbestimmt",
      "lat": 52.53525,
      "lon": 13.60146,
      "coord_quelle": "Wikipedia: Fußgängerbrücke Kastanienallee"
    },
    {
      "id": "b117",
      "bezirk": "Marzahn-Hellersdorf",
      "name": "Pyramidenringbrücke",
      "detail": null,
      "phase": "zeitplan_unbestimmt",
      "lat": 52.532091666667,
      "lon": 13.521888888889,
      "coord_quelle": "Wikipedia: Pyramidenringbrücke"
    },
    {
      "id": "b118",
      "bezirk": "Marzahn-Hellersdorf",
      "name": "Bürknersfelder Straßenbrücke",
      "detail": null,
      "phase": "zeitplan_unbestimmt",
      "lat": null,
      "lon": null,
      "coord_quelle": null
    },
    {
      "id": "b119",
      "bezirk": "Marzahn-Hellersdorf",
      "name": "Märkische-Allee-Brücke",
      "detail": "Bauwerk 1, Überbau 1",
      "phase": "in_planung",
      "lat": 52.515,
      "lon": 13.545,
      "coord_quelle": "Wikipedia: Liste der Brücken in Berlin/M"
    },
    {
      "id": "b120",
      "bezirk": "Marzahn-Hellersdorf",
      "name": "Märkische-Allee-Brücke",
      "detail": "Bauwerk 1, Überbau 2",
      "phase": "in_planung",
      "lat": 52.515,
      "lon": 13.545,
      "coord_quelle": "Wikipedia: Liste der Brücken in Berlin/M"
    },
    {
      "id": "b121",
      "bezirk": "Marzahn-Hellersdorf",
      "name": "Märkische-Allee-Brücke",
      "detail": "Bauwerk 2, Überbau 1",
      "phase": "zeitplan_unbestimmt",
      "lat": 52.515,
      "lon": 13.545,
      "coord_quelle": "Wikipedia: Liste der Brücken in Berlin/M"
    },
    {
      "id": "b122",
      "bezirk": "Marzahn-Hellersdorf",
      "name": "Märkische-Allee-Brücke",
      "detail": "Bauwerk 2, Überbau 2",
      "phase": "zeitplan_unbestimmt",
      "lat": 52.515,
      "lon": 13.545,
      "coord_quelle": "Wikipedia: Liste der Brücken in Berlin/M"
    },
    {
      "id": "b123",
      "bezirk": "Marzahn-Hellersdorf",
      "name": "Märkische-Allee-Brücke",
      "detail": "Bauwerk 3, Überbau 1",
      "phase": "zeitplan_unbestimmt",
      "lat": 52.515,
      "lon": 13.545,
      "coord_quelle": "Wikipedia: Liste der Brücken in Berlin/M"
    },
    {
      "id": "b124",
      "bezirk": "Marzahn-Hellersdorf",
      "name": "Märkische-Allee-Brücke",
      "detail": "Bauwerk 3, Überbau 2",
      "phase": "zeitplan_unbestimmt",
      "lat": 52.515,
      "lon": 13.545,
      "coord_quelle": "Wikipedia: Liste der Brücken in Berlin/M"
    },
    {
      "id": "b125",
      "bezirk": "Marzahn-Hellersdorf",
      "name": "Märkische-Allee-Brücke",
      "detail": "Bauwerk 4, Überbau 1",
      "phase": "zeitplan_unbestimmt",
      "lat": 52.515,
      "lon": 13.545,
      "coord_quelle": "Wikipedia: Liste der Brücken in Berlin/M"
    },
    {
      "id": "b126",
      "bezirk": "Marzahn-Hellersdorf",
      "name": "Märkische-Allee-Brücke",
      "detail": "Bauwerk 4, Überbau 2",
      "phase": "zeitplan_unbestimmt",
      "lat": 52.515,
      "lon": 13.545,
      "coord_quelle": "Wikipedia: Liste der Brücken in Berlin/M"
    },
    {
      "id": "b127",
      "bezirk": "Marzahn-Hellersdorf",
      "name": "Fußgängerbrücke Grabensprung",
      "detail": null,
      "phase": "zeitplan_unbestimmt",
      "lat": 52.501761765,
      "lon": 13.554234319999999,
      "coord_quelle": "WFS Detailnetz Berlin: FGB Grabensprung"
    },
    {
      "id": "b128",
      "bezirk": "Marzahn-Hellersdorf",
      "name": "Frankfurter Brücke",
      "detail": null,
      "phase": "zeitplan_unbestimmt",
      "lat": 52.505178,
      "lon": 13.578636,
      "coord_quelle": "Wikipedia: Frankfurter Brücke"
    },
    {
      "id": "b129",
      "bezirk": "Marzahn-Hellersdorf",
      "name": "Wasserwegbrücke",
      "detail": null,
      "phase": "zeitplan_unbestimmt",
      "lat": 52.512036111111,
      "lon": 13.573519444444,
      "coord_quelle": "Wikipedia: Wasserwegbrücke"
    },
    {
      "id": "b130",
      "bezirk": "Marzahn-Hellersdorf",
      "name": "Cecilienbrücke",
      "detail": null,
      "phase": "zeitplan_unbestimmt",
      "lat": 52.525610655,
      "lon": 13.579169015,
      "coord_quelle": "WFS Detailnetz Berlin: Cecilienbrücke"
    },
    {
      "id": "b131",
      "bezirk": "Marzahn-Hellersdorf",
      "name": "Östliche Hellersdorfer Brücke",
      "detail": null,
      "phase": "in_planung",
      "lat": 52.539801819999994,
      "lon": 13.58174115,
      "coord_quelle": "WFS Detailnetz Berlin: Östliche Hellersdorfer Brücke"
    },
    {
      "id": "b132",
      "bezirk": "Marzahn-Hellersdorf",
      "name": "Hellersdorfer Brücke",
      "detail": null,
      "phase": "in_planung",
      "lat": 52.5398,
      "lon": 13.5815,
      "coord_quelle": "Wikipedia: Hellersdorfer Brücke"
    },
    {
      "id": "b133",
      "bezirk": "Marzahn-Hellersdorf",
      "name": "Südliche Bitterfelder Brücke",
      "detail": null,
      "phase": "zeitplan_unbestimmt",
      "lat": null,
      "lon": null,
      "coord_quelle": null
    },
    {
      "id": "b134",
      "bezirk": "Marzahn-Hellersdorf",
      "name": "Köthener Brücke",
      "detail": null,
      "phase": "zeitplan_unbestimmt",
      "lat": 52.502734544999996,
      "lon": 13.37485197,
      "coord_quelle": "WFS Detailnetz Berlin: Köthener Brücke"
    },
    {
      "id": "b135",
      "bezirk": "Marzahn-Hellersdorf",
      "name": "Wuhletalbrücke",
      "detail": "Überbau 1",
      "phase": "im_bau",
      "lat": 52.562692334999994,
      "lon": 13.558503315,
      "coord_quelle": "WFS Detailnetz Berlin: Wuhletalbrücke,ÜBB1 RF Stadteinwärts"
    },
    {
      "id": "b136",
      "bezirk": "Marzahn-Hellersdorf",
      "name": "Wuhletalbrücke",
      "detail": "Überbau 2",
      "phase": "im_bau",
      "lat": 52.562692334999994,
      "lon": 13.558503315,
      "coord_quelle": "WFS Detailnetz Berlin: Wuhletalbrücke,ÜBB1 RF Stadteinwärts"
    },
    {
      "id": "b137",
      "bezirk": "Marzahn-Hellersdorf",
      "name": "Nördliche Blumberger-Damm-Brücke",
      "detail": null,
      "phase": "zeitplan_unbestimmt",
      "lat": 52.561266666667,
      "lon": 13.576347222222,
      "coord_quelle": "Wikipedia: Nördliche Blumberger-Damm-Brücke"
    },
    {
      "id": "b138",
      "bezirk": "Marzahn-Hellersdorf",
      "name": "Südöstliche Blumberger-Damm-Brücke",
      "detail": null,
      "phase": "im_bau",
      "lat": null,
      "lon": null,
      "coord_quelle": null
    },
    {
      "id": "b139",
      "bezirk": "Marzahn-Hellersdorf",
      "name": "Südwestliche Blumberger-Damm-Brücke",
      "detail": null,
      "phase": "im_bau",
      "lat": null,
      "lon": null,
      "coord_quelle": null
    },
    {
      "id": "b140",
      "bezirk": "Marzahn-Hellersdorf",
      "name": "Fußgängerbrücke am Stadion Wuhletal",
      "detail": null,
      "phase": "in_planung",
      "lat": null,
      "lon": null,
      "coord_quelle": null
    },
    {
      "id": "b141",
      "bezirk": "Marzahn-Hellersdorf",
      "name": "Honsfelder Brücke",
      "detail": null,
      "phase": "zeitplan_unbestimmt",
      "lat": 52.49748133999999,
      "lon": 13.568847595000001,
      "coord_quelle": "WFS Detailnetz Berlin: Honsfelder Brücke (Wuhle)"
    },
    {
      "id": "b142",
      "bezirk": "Marzahn-Hellersdorf",
      "name": "Louis-Lewin-Brücke",
      "detail": null,
      "phase": "zeitplan_unbestimmt",
      "lat": 52.539175,
      "lon": 13.6199,
      "coord_quelle": "Wikipedia: Louis-Lewin-Brücke"
    },
    {
      "id": "b143",
      "bezirk": "Marzahn-Hellersdorf",
      "name": "Stendaler Brücke",
      "detail": "Ost",
      "phase": "zeitplan_unbestimmt",
      "lat": 52.536269444444,
      "lon": 13.605161111111,
      "coord_quelle": "Wikipedia: Stendaler Brücke"
    },
    {
      "id": "b144",
      "bezirk": "Marzahn-Hellersdorf",
      "name": "Mosbacher Brücke",
      "detail": null,
      "phase": "zeitplan_unbestimmt",
      "lat": 52.502641804999996,
      "lon": 13.577759525,
      "coord_quelle": "WFS Detailnetz Berlin: Mosbacher Brücke (Wuhle)"
    },
    {
      "id": "b145",
      "bezirk": "Lichtenberg",
      "name": "Seebrücke",
      "detail": null,
      "phase": "zeitplan_unbestimmt",
      "lat": 52.42080017,
      "lon": 13.171414129999999,
      "coord_quelle": "WFS Detailnetz Berlin: Wannseebrücke"
    },
    {
      "id": "b146",
      "bezirk": "Lichtenberg",
      "name": "Nördliche Falkenberger Brücke",
      "detail": null,
      "phase": "zeitplan_unbestimmt",
      "lat": null,
      "lon": null,
      "coord_quelle": null
    },
    {
      "id": "b147",
      "bezirk": "Lichtenberg",
      "name": "Südliche Falkenberger Brücke",
      "detail": null,
      "phase": "zeitplan_unbestimmt",
      "lat": null,
      "lon": null,
      "coord_quelle": null
    },
    {
      "id": "b148",
      "bezirk": "Lichtenberg",
      "name": "Hohenschönhausener Rhinstraßenbrücke",
      "detail": null,
      "phase": "zeitplan_unbestimmt",
      "lat": 52.54268,
      "lon": 13.51189,
      "coord_quelle": "Wikipedia: Hohenschönhausener Rhinstraßenbrücke"
    },
    {
      "id": "b149",
      "bezirk": "Lichtenberg",
      "name": "Gehrenseebrücke",
      "detail": null,
      "phase": "in_planung",
      "lat": 52.55551,
      "lon": 13.525296,
      "coord_quelle": "Wikipedia: Gehrenseebrücke"
    },
    {
      "id": "b150",
      "bezirk": "Lichtenberg",
      "name": "Skandinavische Brücke",
      "detail": "Süd",
      "phase": "zeitplan_unbestimmt",
      "lat": 52.511061111111,
      "lon": 13.500994444444,
      "coord_quelle": "Wikipedia: Skandinavische Brücke"
    },
    {
      "id": "b151",
      "bezirk": "Lichtenberg",
      "name": "Skandinavische Brücke",
      "detail": "Nord",
      "phase": "zeitplan_unbestimmt",
      "lat": 52.511061111111,
      "lon": 13.500994444444,
      "coord_quelle": "Wikipedia: Skandinavische Brücke"
    },
    {
      "id": "b152",
      "bezirk": "Lichtenberg",
      "name": "Fußgängerbrücke Alt-Friedrichsfelde",
      "detail": null,
      "phase": "zeitplan_unbestimmt",
      "lat": 52.51018,
      "lon": 13.51238,
      "coord_quelle": "Wikipedia: Fußgängerbrücke Alt-Friedrichsfelde"
    },
    {
      "id": "b153",
      "bezirk": "Lichtenberg",
      "name": "Gensinger Brücke",
      "detail": null,
      "phase": "zeitplan_unbestimmt",
      "lat": 52.51023,
      "lon": 13.53251,
      "coord_quelle": "Wikipedia: Gensinger Brücke"
    },
    {
      "id": "b154",
      "bezirk": "Lichtenberg",
      "name": "Nördliche Grenzgrabenbrücke",
      "detail": null,
      "phase": "zeitplan_unbestimmt",
      "lat": 52.52604,
      "lon": 13.51695,
      "coord_quelle": "Wikipedia: Nördliche Grenzgrabenbrücke"
    }
  ]
}